{"items":[{"id":1143,"title":"Cajero Autom\u00e1tico en Petropar 11 de setiembre","url_title":"cajero-automatico-en-petropar-11-de-setiembre","gmap":{"latitude":-25.33728680268,"longitude":-57.560459821164},"contact":[{"type":null,"number":null}],"hours":[],"address":"Avda. 11 de setiembre esq. M\u00fasicos del Chaco","city":"Central ","services":[{"name":"ATM","icon":"atm"}]},{"id":1142,"title":"Cajero Autom\u00e1tico en Copetrol Zavala Cue","url_title":"cajero-automatico-en-copetrol-zavala-cue","gmap":{"latitude":-25.342156242049,"longitude":-57.56613945582},"contact":[{"type":null,"number":null}],"hours":[],"address":"Avda. Zavala Cue esq. Villa Hayes","city":"Central ","services":[{"name":"ATM","icon":"atm"}]},{"id":909,"title":"Cajero Autom\u00e1tico en Shopping Multiplaza","url_title":"cajero-automatico-en-shopping-multiplaza","gmap":{"latitude":-25.31691486238,"longitude":-57.571577938098},"contact":[{"type":null,"number":null}],"hours":[],"address":"Avda. Eusebio Ayala Km 5","city":"Central","services":[{"name":"ATM","icon":"atm"}]},{"id":908,"title":"Cajero Autom\u00e1tico en Supermercado Km 45","url_title":"supermercado-km-45","gmap":{"latitude":-25.548896030896,"longitude":-57.306466699197},"contact":[{"type":null,"number":null}],"hours":[],"address":"Yaguar\u00f3n","city":"Central","services":[{"name":"ATM","icon":"atm"}]},{"id":907,"title":"Cajero Autom\u00e1tico en Cooperativa 24 de Octubre","url_title":"cajero-automatico-en-cooperativa-24-de-octubre","gmap":{"latitude":-25.304043338012,"longitude":-57.652555122021},"contact":[{"type":null,"number":null}],"hours":[],"address":"14 de Mayo esquina 23 proyectadas","city":"Central","services":[{"name":"ATM","icon":"atm"}]},{"id":906,"title":"Cajero Autom\u00e1tico en Mercado Municipal, Guarambar\u00e9","url_title":"cajero-automatico-en-mercado-municipal-guarambare","gmap":{"latitude":-25.489684121879,"longitude":-57.454745411902},"contact":[{"type":null,"number":null}],"hours":[],"address":"Tte. Isaurralde, Ruta Guarambare, Villeta","city":"Central","services":[{"name":"ATM","icon":"atm"}]},{"id":905,"title":"Cajero Autom\u00e1tico en IPS Central","url_title":"cajero-automatico-en-ips-central","gmap":{"latitude":-25.272230873318,"longitude":-57.580493593918},"contact":[{"type":null,"number":null}],"hours":[],"address":"Sant\u00edsimo Sacramento","city":"Central","services":[{"name":"ATM","icon":"atm"}]},{"id":904,"title":"Cajero Autom\u00e1tico en Petropar Arasunu","url_title":"cajero-automatico-en-petropar-arasunu","gmap":{"latitude":-25.346390035991,"longitude":-57.54319295159},"contact":[{"type":null,"number":null}],"hours":[],"address":"Avda. Pastora C\u00e9spedes e\/ 21 de setiembre","city":"Central","services":[{"name":"ATM","icon":"atm"}]},{"id":903,"title":"Cajero Autom\u00e1tico en World Trade Center","url_title":"cajero-automatico-en-world-trade-center","gmap":{"latitude":-25.284587048601,"longitude":-57.567089500803},"contact":[{"type":null,"number":null}],"hours":[],"address":"Avda. Aviadores del Chaco ","city":"Central","services":[{"name":"ATM","icon":"atm"}]},{"id":901,"title":"Cajero Autom\u00e1tico en Shopping Mcal. L\u00f3pez","url_title":"cajero-automatico-enshopping-mcal.-lopez","gmap":{"latitude":-25.295105597802,"longitude":-57.581056541035},"contact":[{"type":null,"number":null}],"hours":[],"address":"Quesada 5050 e\/ Charles de Gaulle y Tte. Zotti","city":"Central","services":[{"name":"ATM","icon":"atm"}]},{"id":900,"title":"Cajero Autom\u00e1tico en Martel, Mcal. L\u00f3pez","url_title":"cajero-automatico-en-martel-mcal.-lopez","gmap":{"latitude":-25.295183055636,"longitude":-57.578000807008},"contact":[{"type":null,"number":null}],"hours":[],"address":"Avda. Mariscal L\u00f3pez c\/ Cruz del Defensor","city":"Central","services":[{"name":"ATM","icon":"atm"}]},{"id":899,"title":"Cajero Autom\u00e1tico en Copetrol, Itagua","url_title":"cajero-automatico-en-copetrol-itagua","gmap":{"latitude":-25.383181724743,"longitude":-57.373802040738},"contact":[{"type":null,"number":null}],"hours":[],"address":"Ruta Mariscal Estigarribia km 34","city":"Central","services":[{"name":"ATM","icon":"atm"}]},{"id":898,"title":"Cajero Autom\u00e1tico en Nuevo Super, Caacup\u00e9","url_title":"cajero-automatico-nuevo-super-caacupe","gmap":{"latitude":-25.389180150142,"longitude":-57.150804193903},"contact":[{"type":null,"number":null}],"hours":[],"address":"Ruta 2 - Caacup\u00e9","city":"Central","services":[{"name":"ATM","icon":"atm"}]},{"id":897,"title":"Cajero Autom\u00e1tico en Puma Energy, Ciudad del Este","url_title":"cajero-automatico-puma-energy-ciudad-del-este","gmap":{"latitude":-25.537661743926,"longitude":-54.609818437434},"contact":[{"type":null,"number":null}],"hours":[],"address":"Avda. Bernardino Caballero","city":"Alto Paran\u00e1","services":[{"name":"ATM","icon":"atm"}]},{"id":896,"title":"Cajero Autom\u00e1tico en Shopping Pinedo","url_title":"cajero-automatico-shopping-pinedo","gmap":{"latitude":-25.324095129891,"longitude":-57.520781100262},"contact":[{"type":null,"number":null}],"hours":[],"address":"Avda. Mariscal L\u00f3pez, San Lorenzo","city":"Central","services":[{"name":"ATM","icon":"atm"}]},{"id":895,"title":"Cajero Autom\u00e1tico en Copetrol, Carretera L\u00f3pez","url_title":"cajero-automatico-copetrol-carretera-lopez","gmap":{"latitude":-25.360189209932,"longitude":-57.620989502115},"contact":[{"type":null,"number":null}],"hours":[],"address":"Carretera De L\u00f3pez esq. Manuel Gondra, Mbachi\u00f3","city":"Central","services":[{"name":"ATM","icon":"atm"}]},{"id":894,"title":"Cajero Autom\u00e1tico en Rysa, Rep\u00fablica Argentina","url_title":"rysa-republica-argentina","gmap":{"latitude":-25.318107345871,"longitude":-57.591187450926},"contact":[{"type":null,"number":null}],"hours":[],"address":"Avda. Rca. Argentina esq. Paso de Patria, Nazareth","city":"Central","services":[{"name":"ATM","icon":"atm"}]},{"id":892,"title":"Cajero Autom\u00e1tico en Galer\u00eda Bonanza, Mercado 4","url_title":"cajero-automatico-galeria-bonanza-mercado-4","gmap":{"latitude":-25.299906264765,"longitude":-57.623109625795},"contact":[{"type":null,"number":null}],"hours":[],"address":"Avda. Dr Jos\u00e9 Gaspar Rodriguez de Francia","city":"Central","services":[{"name":"ATM","icon":"atm"}]},{"id":891,"title":"Cajero Autom\u00e1tico en Copetrol Von Polesky, Villa Elisa","url_title":"atm-copetrol-von-polesky-villa-elisa","gmap":{"latitude":-25.366398335703,"longitude":-57.588350433066},"contact":[{"type":null,"number":null}],"hours":[],"address":"Villa Elisa (Avda Von Polesky)","city":"Central","services":[{"name":"ATM","icon":"atm"}]},{"id":890,"title":"Cajero Autom\u00e1tico en Shopping Mariano","url_title":"atm-shopping-mariano","gmap":{"latitude":-25.225721597126,"longitude":-57.536128061917},"contact":[{"type":null,"number":null}],"hours":[],"address":"Ruta Carlos A. L\u00f3pez (Ex Transchaco) esquina Manuel Irala Fern\u00e1ndez","city":"Central","services":[{"name":"ATM","icon":"atm"}]},{"id":889,"title":"Cajero Autom\u00e1tico en Shopping del Sol","url_title":"atm-shopping-del-sol","gmap":{"latitude":-25.282589712092,"longitude":-57.566622565082},"contact":[{"type":null,"number":null}],"hours":[],"address":"Avenida Aviadores del Chaco","city":"Asunci\u00f3n ","services":[{"name":"ATM","icon":"atm"}]},{"id":888,"title":"Cajero Autom\u00e1tico en Supermercado Todo Carne","url_title":"supermercado-todo-carne","gmap":{"latitude":-25.271430320055,"longitude":-57.490349081877},"contact":[{"type":null,"number":null}],"hours":[],"address":"Sportivo Luque\u00f1o, Luque","city":"Central","services":[{"name":"ATM","icon":"atm"}]},{"id":887,"title":"Cajero Autom\u00e1tico en Sanatorio San Roque","url_title":"atm-sanatorio-san-roque","gmap":{"latitude":-25.288904503034,"longitude":-57.620764667722},"contact":[{"type":null,"number":null}],"hours":[],"address":"Eligio Ayala esq. Curupayty","city":"Central","services":[{"name":"ATM","icon":"atm"}]},{"id":886,"title":"Cajero Autom\u00e1tico en Supermercado Los Jardines, Luque","url_title":"atm-supermercado-los-jardines-luque","gmap":{"latitude":-25.264944651898,"longitude":-57.505824219034},"contact":[{"type":null,"number":null}],"hours":[],"address":"Avda. General Aquino esq. Tte Rivas, Luque","city":"Central","services":[{"name":"ATM","icon":"atm"}]},{"id":885,"title":"Cajero Autom\u00e1tico en Supermercado Kingo","url_title":"atm-supermercado-kingo-san-lorenzo","gmap":{"latitude":-25.354341898841,"longitude":-57.543592077771},"contact":[{"type":null,"number":null}],"hours":[],"address":"Avda. Avelino Martinez, San Lorenzo","city":"Central","services":[{"name":"ATM","icon":"atm"}]},{"id":884,"title":"Cajero Autom\u00e1tico en Petrobr\u00e1s, Ciudad del Este","url_title":"petrobras-cde-km-65","gmap":{"latitude":-25.497992957318,"longitude":-54.66276729472},"contact":[{"type":null,"number":null}],"hours":[],"address":"Supercarretera KM 6,5, CDE Km 6,5","city":"Alto Paran\u00e1","services":[{"name":"ATM","icon":"atm"}]},{"id":880,"title":"Hipermercado Luisito \u00d1emby","url_title":"hipermercado-luisito-nemby","gmap":{"latitude":-25.388689702992,"longitude":-57.524000295508},"contact":[{"type":"Tel\u00e9fono","number":"0214143000"}],"hours":[{"days":"Lunes - Viernes","open":"08:00","close":"20:00"},{"days":"S\u00e1bado","open":"09:00","close":"17:00"}],"address":"Manuel Ortiz Guererro esq. De la Victoria  (Planta Baja)","city":"Central","services":[{"name":"ATM","icon":"atm"}]},{"id":471,"title":"Supermercado Los Jardines Fdo. de la Mora Zona Norte","url_title":"los-jardines-fdo.-de-la-mora-zona-norte","gmap":{"latitude":-25.312888619515,"longitude":-57.542591359525},"contact":[{"type":"Tel\u00e9fono","number":"4143000"}],"hours":[{"days":"Lunes - Viernes","open":"13:00","close":"20:00"},{"days":"S\u00e1bado","open":"09:00","close":"17:00"}],"address":"Luis Alberto del Paran\u00e1 esq. Jacaranda","city":"Central","services":[{"name":"ATM","icon":"atm"},{"name":"Horario extendido","icon":"timer"}]},{"id":470,"title":"Supermercado Bonimar Guarambar\u00e9","url_title":"bonimar-guarambare","gmap":{"latitude":-25.496612015181,"longitude":-57.473325368787},"contact":[{"type":"Tel\u00e9fono","number":"4143000"}],"hours":[{"days":"Lunes - Viernes","open":"11:00","close":"19:00"},{"days":"S\u00e1bado","open":"09:00","close":"17:00"}],"address":"Acceso Sur esq. desvio Guarambar\u00e9 - Villeta (B\u00ba Alegre)","city":"Central","services":[{"name":"ATM","icon":"atm"},{"name":"Horario extendido","icon":"timer"}]},{"id":464,"title":"Supermercado el Pueblo - San Vicente","url_title":"supermercado-el-pueblo-san-vicente","gmap":{"latitude":-25.317340214876,"longitude":-57.619600144705},"contact":[{"type":"Tel\u00e9fono","number":"4143000"}],"hours":[{"days":"Lunes - Viernes","open":"13:00","close":"20:00"},{"days":"S\u00e1bado","open":"09:00","close":"17:00"}],"address":"General Santos e\/ Asunci\u00f3n y Prof. Torres ","city":"Central","services":[{"name":"ATM","icon":"atm"},{"name":"Horario extendido","icon":"timer"}]},{"id":429,"title":"Supermercado Gran V\u00eda - CDE","url_title":"supermercado-gran-via","gmap":{"latitude":-25.544932513484,"longitude":-54.608758249197},"contact":[{"type":"Tel\u00e9fono","number":"4143000"}],"hours":[{"days":"Lunes - Viernes","open":"13:00","close":"20:00"},{"days":"S\u00e1bado","open":"09:00","close":"17:00"}],"address":"Avda. Bernardino Cabaellero esq. Sargento Silva Supermercado Gran V\u00eda - CDE (camino Pte. Franco)","city":"Alto Paran\u00e1","services":[{"name":"Atenci\u00f3n a cliente","icon":"sac"},{"name":"Horario extendido","icon":"timer"},{"name":"ATM","icon":"atm"}]},{"id":428,"title":"Shopping D Coronel Oviedo","url_title":"shopping-coronel-oviedo","gmap":{"latitude":-25.467242161443,"longitude":-56.446025368524},"contact":[{"type":"Tel\u00e9fono","number":"4143000"}],"hours":[{"days":"Lunes - Viernes","open":"09:00","close":"20:00"},{"days":"S\u00e1bado","open":"09:00","close":"18:00"},{"days":"Domingo","open":"10:00","close":"15:00"}],"address":"Ruta N\u00ba 7 Gaspar Rodr\u00edguez de Francia - Km 133","city":"Caaguaz\u00fa","services":[{"name":"Atenci\u00f3n a cliente","icon":"sac"},{"name":"Horario extendido","icon":"timer"},{"name":"ATM","icon":"atm"}]},{"id":427,"title":"Supermercado Espa\u00f1a Laurelty","url_title":"laurelty-luque","gmap":{"latitude":-25.289489457503,"longitude":-57.5007458},"contact":[{"type":"Tel\u00e9fono","number":"4143000"}],"hours":[{"days":"Lunes - Viernes","open":"08:00","close":"20:00"},{"days":"S\u00e1bado","open":"09:00","close":"17:00"}],"address":"Avda. Capit\u00e1n Insfr\u00e1n c\/ Puerto Pinasco","city":"Central","services":[{"name":"Atenci\u00f3n a cliente","icon":"sac"},{"name":"Horario extendido","icon":"timer"},{"name":"ATM","icon":"atm"}]},{"id":426,"title":"Supermercado Maxi - PJC","url_title":"supermercado-maxi","gmap":{"latitude":-22.559852968501,"longitude":-55.708968263056},"contact":[{"type":"Tel\u00e9fono","number":"4143000"}],"hours":[{"days":"Lunes - Viernes","open":"13:00","close":"20:00"},{"days":"S\u00e1bado","open":"08:00","close":"13:00"}],"address":"Ruta 5 c\/ Avda. Internacional - Anexo del Shopping China","city":"Amambay ","services":[{"name":"Atenci\u00f3n a cliente","icon":"sac"},{"name":"Horario extendido","icon":"timer"},{"name":"ATM","icon":"atm"}]},{"id":425,"title":"Universidad Cat\u00f3lica de Asunci\u00f3n","url_title":"universidad-catolica","gmap":{"latitude":-25.323124677322,"longitude":-57.635638964418},"contact":[{"type":"Tel\u00e9fono","number":"4143000"}],"hours":[{"days":"Lunes - Viernes","open":"11:00","close":"19:00"}],"address":"Tte. Cantaluppi esq. Guillermo Molinas - Sede Santa Librada","city":"Central","services":[{"name":"Atenci\u00f3n a cliente","icon":"sac"},{"name":"Horario extendido","icon":"timer"},{"name":"ATM","icon":"atm"}]},{"id":423,"title":"Supermercado Espa\u00f1a Capiata","url_title":"supermercado-espana-capiata","gmap":{"latitude":-25.352501096997,"longitude":-57.444509383135},"contact":[{"type":"Tel\u00e9fono","number":"4143000"}],"hours":[{"days":"Lunes - Viernes","open":"08:00","close":"20:00"},{"days":"S\u00e1bado","open":"09:00","close":"17:00"}],"address":"Ruta N\u00ba 2 Mcal. Estigarribia - Km 19,5","city":"Central","services":[{"name":"Atenci\u00f3n a cliente","icon":"sac"},{"name":"Horario extendido","icon":"timer"},{"name":"ATM","icon":"atm"}]},{"id":422,"title":"Supermercado Espa\u00f1a Centro","url_title":"supermercado-espana-centro","gmap":{"latitude":-25.285371499021,"longitude":-57.62117610846},"contact":[{"type":"Tel\u00e9fono","number":"4143000"}],"hours":[{"days":"Lunes - Viernes","open":"08:00","close":"20:00"},{"days":"S\u00e1bado","open":"08:00","close":"20:00"},{"days":"Domingo","open":"09:00","close":"13:00"}],"address":"Avda. Espa\u00f1a e\/ San Jos\u00e9 y Brasil","city":"Central","services":[{"name":"Atenci\u00f3n a cliente","icon":"sac"},{"name":"Horario extendido","icon":"timer"},{"name":"ATM","icon":"atm"},{"name":"Tauser","icon":"tauser"}]},{"id":421,"title":"Curuguaty","url_title":"curuguaty1","gmap":{"latitude":-25.470506307564,"longitude":-55.6922702},"contact":[{"type":"Tel\u00e9fono","number":"4143000"}],"hours":[{"days":"Lunes - Viernes","open":"08:00","close":"16:45"},{"days":"S\u00e1bado","open":"08:00","close":"13:00"}],"address":"Avda. 14 de Mayo esq. Julia Miranda Cueto","city":"Canindey\u00fa","services":[{"name":"Atenci\u00f3n a cliente","icon":"sac"},{"name":"Horario extendido","icon":"timer"},{"name":"ATM","icon":"atm"}]},{"id":420,"title":"Salemma Super Center","url_title":"salemma-super-center","gmap":{"latitude":-25.352813778017,"longitude":-57.444479878836},"contact":[{"type":"Tel\u00e9fono","number":"4143000"}],"hours":[{"days":"Lunes - Viernes","open":"08:00","close":"20:00"},{"days":"S\u00e1bado","open":"08:00","close":"20:00"},{"days":"Domingo","open":"08:00","close":"12:00"}],"address":"Ruta N\u00ba 1 Mcal. Estigarribia - Km 9,5","city":"Central","services":[{"name":"Atenci\u00f3n a cliente","icon":"sac"},{"name":"Horario extendido","icon":"timer"},{"name":"ATM","icon":"atm"}]},{"id":419,"title":"Ciudad del Este IV","url_title":"ciudad-del-este-iv","gmap":{"latitude":-25.510474185699,"longitude":-54.640312495107},"contact":[{"type":"Tel\u00e9fono","number":"4143000"}],"hours":[{"days":"Lunes - Viernes","open":"08:00","close":"16:45"}],"address":"Super Carretera Mcal. Francisco Solano L\u00f3pez - Km 4","city":"Alto Paran\u00e1","services":[{"name":"Atenci\u00f3n a cliente","icon":"sac"},{"name":"ATM","icon":"atm"},{"name":"Tauser","icon":"tauser"}]},{"id":418,"title":"Cruce Liberaci\u00f3n","url_title":"cruce-liberacion","gmap":{"latitude":-24.19572431123,"longitude":-56.43487445},"contact":[{"type":"Tel\u00e9fono","number":"4143000"}],"hours":[{"days":"Lunes - Viernes","open":"08:00","close":"16:45"}],"address":"Ruta N\u00ba 3 Gral. Elizardo Aquino -  Km 281 ","city":"San Pedro","services":[{"name":"Atenci\u00f3n a cliente","icon":"sac"},{"name":"ATM","icon":"atm"}]},{"id":414,"title":"Hernandarias","url_title":"hernandarias","gmap":{"latitude":-25.404475080867,"longitude":-54.640972676389},"contact":[{"type":"Tel\u00e9fono","number":"4143000"}],"hours":[{"days":"Lunes - Viernes","open":"08:00","close":"16:45"}],"address":"Avda. Juan B. Flores esq. Tebicuary","city":"Alto Paran\u00e1","services":[{"name":"Atenci\u00f3n a cliente","icon":"sac"},{"name":"ATM","icon":"atm"},{"name":"Tauser","icon":"tauser"}]},{"id":413,"title":"Supermercado El Pueblo - Lambar\u00e9","url_title":"supermercado-el-pueblo","gmap":{"latitude":-25.334307182919,"longitude":-57.613343088638},"contact":[{"type":"Tel\u00e9fono","number":"4143000"}],"hours":[{"days":"Lunes - Viernes","open":"08:00","close":"20:00"},{"days":"S\u00e1bado","open":"09:00","close":"20:00"},{"days":"Domingo","open":"09:00","close":"13:30"}],"address":"Paz del Chaco e\/ Rep\u00fablica Argentina y M\u00e9dicos del Chaco","city":"Central","services":[{"name":"Atenci\u00f3n a cliente","icon":"sac"},{"name":"Horario extendido","icon":"timer"},{"name":"ATM","icon":"atm"}]},{"id":412,"title":"San Lorenzo Shopping","url_title":"san-lorenzo-shopping","gmap":{"latitude":-25.343393923273,"longitude":-57.488560962967},"contact":[{"type":"Tel\u00e9fono","number":"4143000"}],"hours":[{"days":"Lunes - Viernes","open":"09:00","close":"20:00"},{"days":"S\u00e1bado","open":"09:00","close":"20:00"},{"days":"Domingo","open":"10:00","close":"15:00"}],"address":"Ruta N\u00ba  2 Mcal. Estigarribia c\/ Sargento Penayo - Km 15","city":"Central","services":[{"name":"Atenci\u00f3n a cliente","icon":"sac"},{"name":"Horario extendido","icon":"timer"},{"name":"ATM","icon":"atm"}]},{"id":411,"title":"Abasto Norte","url_title":"abasto-norte","gmap":{"latitude":-25.176499102658,"longitude":-57.483987446434},"contact":[{"type":"Tel\u00e9fono","number":"4143000"}],"hours":[{"days":"Lunes - Viernes","open":"07:00","close":"16:00"},{"days":"S\u00e1bado","open":"07:00","close":"13:00"}],"address":"Ruta N\u00ba 3  Gral. E. Aquino c\/ Maya","city":"Central","services":[{"name":"Atenci\u00f3n a cliente","icon":"sac"},{"name":"Horario extendido","icon":"timer"},{"name":"ATM","icon":"atm"}]},{"id":410,"title":"Villa Elisa","url_title":"villa-elisa","gmap":{"latitude":-25.376287914237,"longitude":-57.582963125517},"contact":[{"type":"Tel\u00e9fono","number":"4143000"}],"hours":[{"days":"Lunes - Viernes","open":"08:00","close":"16:45"}],"address":"Avda. Am\u00e9rico Pico esq. Nanawa","city":"Central","services":[{"name":"Atenci\u00f3n a cliente","icon":"sac"}]},{"id":409,"title":"Encarnaci\u00f3n III","url_title":"encarnacion-iii","gmap":{"latitude":-27.325074758205,"longitude":-55.85887415},"contact":[{"type":"Tel\u00e9fono","number":"4143000"}],"hours":[{"days":"Lunes - Viernes","open":"08:00","close":"16:45"}],"address":"Ruta 6 e\/ Avda. Caballero y Calle Posadas","city":"Itap\u00faa","services":[{"name":"Atenci\u00f3n a cliente","icon":"sac"},{"name":"ATM","icon":"atm"}]},{"id":408,"title":"Capit\u00e1n Meza","url_title":"capitan-meza","gmap":{"latitude":-26.827322467832,"longitude":-55.337705020377},"contact":[{"type":"Tel\u00e9fono","number":"4143000"}],"hours":[{"days":"Lunes - Viernes","open":"08:00","close":"16:45"}],"address":"Ruta 14 - 18 esq. Federico Mayntzuhsen","city":"Itap\u00faa","services":[{"name":"Atenci\u00f3n a cliente","icon":"sac"},{"name":"ATM","icon":"atm"}]},{"id":407,"title":"Aregua","url_title":"aregua","gmap":{"latitude":-25.375609357532,"longitude":-57.5845349},"contact":[{"type":"Tel\u00e9fono","number":"4143000"}],"hours":[{"days":"Lunes - Viernes","open":"08:00","close":"16:45"},{"days":"S\u00e1bado","open":"09:00","close":"12:30"}],"address":"Nuestra Sra. de la Candelaria esq. Gabriel Casaccia","city":"Central","services":[{"name":"Atenci\u00f3n a cliente","icon":"sac"},{"name":"Horario extendido","icon":"timer"},{"name":"ATM","icon":"atm"}]},{"id":405,"title":"Ypacarai","url_title":"ypacarai","gmap":{"latitude":-25.402295914877,"longitude":-57.288281650332},"contact":[{"type":"Tel\u00e9fono","number":"4143000"}],"hours":[{"days":"Lunes - Viernes","open":"08:00","close":"16:45"},{"days":"S\u00e1bado","open":"09:00","close":"12:30"}],"address":"Calle Bernardino Caballero esq. Yegros","city":"Central","services":[{"name":"Atenci\u00f3n a cliente","icon":"sac"},{"name":"Horario extendido","icon":"timer"},{"name":"ATM","icon":"atm"}]},{"id":403,"title":"Paraguar\u00ed","url_title":"paraguari","gmap":{"latitude":-25.767506994508,"longitude":-57.239472974081},"contact":[{"type":"Tel\u00e9fono","number":"4143000"}],"hours":[{"days":"Lunes - Viernes","open":"08:00","close":"16:45"}],"address":"Ruta N\u00ba 1 Mcal. L\u00f3pez esq. Asunci\u00f3n","city":"Paraguar\u00ed","services":[{"name":"Atenci\u00f3n a cliente","icon":"sac"},{"name":"ATM","icon":"atm"}]},{"id":402,"title":"San Pedro del Ykyamandiy\u00fa","url_title":"san-pedro-del-ykyamandiyu","gmap":{"latitude":-24.089418707507,"longitude":-57.073639574467},"contact":[{"type":"Tel\u00e9fono","number":"4143000"}],"hours":[{"days":"Lunes - Viernes","open":"08:00","close":"16:45"}],"address":"Avda. Braulio Zelada esq. Amancio Gaona","city":"San Pedro","services":[{"name":"Atenci\u00f3n a cliente","icon":"sac"},{"name":"ATM","icon":"atm"}]},{"id":401,"title":"Supermercado Bonimar J. A. Saldivar","url_title":"supermercado-bonimar-j.-a.-saldivar","gmap":{"latitude":-25.441817529756,"longitude":-57.442660006067},"contact":[{"type":"Tel\u00e9fono","number":"4143000"}],"hours":[{"days":"Lunes - Viernes","open":"08:00","close":"20:00"},{"days":"S\u00e1bado","open":"08:00","close":"20:00"},{"days":"Domingo","open":"09:00","close":"13:00"}],"address":"Ruta N\u00ba 1 Mcal. L\u00f3pez - Km 26","city":"Central","services":[{"name":"Atenci\u00f3n a cliente","icon":"sac"},{"name":"Horario extendido","icon":"timer"},{"name":"ATM","icon":"atm"}]},{"id":400,"title":"Quinta Avenida","url_title":"quinta-avenida","gmap":{"latitude":-25.298071405299,"longitude":-57.635559705557},"contact":[{"type":"Tel\u00e9fono","number":"4143000"}],"hours":[{"days":"Lunes - Viernes","open":"08:00","close":"16:45"}],"address":"Avda. Francisco Acu\u00f1a de Figueroa (Quinta Avenida) esq. Parapiti","city":"Central","services":[{"name":"Atenci\u00f3n a cliente","icon":"sac"},{"name":"ATM","icon":"atm"}]},{"id":399,"title":"Julio Correa","url_title":"julio-correa","gmap":{"latitude":-25.272549793717,"longitude":-57.565650271758},"contact":[{"type":"Tel\u00e9fono","number":"4143000"}],"hours":[{"days":"Lunes - Viernes","open":"08:00","close":"16:45"}],"address":"Julio Correa e\/ Elias Ayala y Domingo Portillo","city":"Central","services":[{"name":"Atenci\u00f3n a cliente","icon":"sac"},{"name":"ATM","icon":"atm"}]},{"id":398,"title":"Shopping Villa Morra","url_title":"shopping-villamorra","gmap":{"latitude":-25.294230439248,"longitude":-57.580209915012},"contact":[{"type":"Tel\u00e9fono","number":"4143000"}],"hours":[{"days":"Lunes - Viernes","open":"09:00","close":"20:00"},{"days":"S\u00e1bado","open":"09:00","close":"20:00"},{"days":"Domingo","open":"11:00","close":"15:00"}],"address":"Avda. Mcal. L\u00f3pez esq. Charles de Gaulle y Roque Gonz\u00e1lez","city":"Central","services":[{"name":"Atenci\u00f3n a cliente","icon":"sac"},{"name":"Horario extendido","icon":"timer"},{"name":"Tauser","icon":"tauser"},{"name":"ATM","icon":"atm"}]},{"id":397,"title":"San Alberto","url_title":"san-alberto","gmap":{"latitude":-24.969304357395,"longitude":-54.91436465},"contact":[{"type":"Tel\u00e9fono","number":"4143000"}],"hours":[{"days":"Lunes - Viernes","open":"08:00","close":"16:45"}],"address":"Avda. Mcal. L\u00f3pez esq. Nuestra Se\u00f1ora de la Asunci\u00f3n","city":"Alto Paran\u00e1","services":[{"name":"Atenci\u00f3n a cliente","icon":"sac"},{"name":"ATM","icon":"atm"}]},{"id":396,"title":"San Bernardino","url_title":"san-bernardino1","gmap":{"latitude":-25.311893657511,"longitude":-57.296932},"contact":[{"type":"Tel\u00e9fono","number":"4143000"}],"hours":[{"days":"Lunes - Viernes","open":"08:00","close":"16:45"},{"days":"S\u00e1bado","open":"09:00","close":"12:30"}],"address":"Luis S. Vache c\/ Bicentenario","city":"Cordillera","services":[{"name":"Atenci\u00f3n a cliente","icon":"sac"},{"name":"Horario extendido","icon":"timer"},{"name":"ATM","icon":"atm"}]},{"id":395,"title":"Hipermercado Luisito Mariano R. Alonso","url_title":"hipermercado-luisito-m.r.a","gmap":{"latitude":-25.237078235829,"longitude":-57.539786375656},"contact":[{"type":"Tel\u00e9fono","number":"4143000"}],"hours":[{"days":"Lunes - Viernes","open":"15:30","close":"20:00"},{"days":"S\u00e1bado","open":"08:00","close":"20:00"},{"days":"Domingo","open":"08:00","close":"12:00"}],"address":"Ruta Transchaco esq. Augusto Roa Bastos","city":"Central","services":[{"name":"Atenci\u00f3n a cliente","icon":"sac"},{"name":"Horario extendido","icon":"timer"},{"name":"ATM","icon":"atm"}]},{"id":394,"title":"Estados Unidos","url_title":"eeuu","gmap":{"latitude":-25.290403642681,"longitude":-57.628531888692},"contact":[{"type":"Tel\u00e9fono","number":"4143000"}],"hours":[{"days":"Lunes - Viernes","open":"08:00","close":"16:45"}],"address":"EE.UU. 780  e\/ Herrera y Fulgencio R. Moreno","city":"Central","services":[{"name":"Atenci\u00f3n a cliente","icon":"sac"},{"name":"ATM","icon":"atm"},{"name":"Tauser","icon":"tauser"}]},{"id":393,"title":"Eusebio Ayala (Barrero Grande)","url_title":"eusebio-ayala-barrero-grande1","gmap":{"latitude":-25.381909250143,"longitude":-56.962167402377},"contact":[{"type":"Tel\u00e9fono","number":"4143000"}],"hours":[{"days":"Lunes - Viernes","open":"08:00","close":"16:45"}],"address":"Independencia Nacional esq. 25 de Noviembre","city":"Cordillera","services":[{"name":"Atenci\u00f3n a cliente","icon":"sac"},{"name":"ATM","icon":"atm"}]},{"id":392,"title":"Hipermercado Luisito Felix Bogado","url_title":"eusebio-ayala-barrero-grande","gmap":{"latitude":-25.265296107495,"longitude":-57.5053892},"contact":[{"type":"Tel\u00e9fono","number":"4143000"}],"hours":[{"days":"Lunes - Viernes","open":"15:00","close":"20:00"},{"days":"S\u00e1bado","open":"09:00","close":"17:00"},{"days":"Domingo","open":"08:00","close":"12:00"}],"address":"Avda. Jos\u00e9 F\u00e9lix Bogado c\/ Campo V\u00eda","city":"Central","services":[{"name":"Atenci\u00f3n a cliente","icon":"sac"},{"name":"Horario extendido","icon":"timer"}]},{"id":391,"title":"Hipermercado Luisito Luque","url_title":"hipermercado-luisito-luque","gmap":{"latitude":-25.266799940654,"longitude":-57.484540765344},"contact":[{"type":"Tel\u00e9fono","number":"4143000"}],"hours":[{"days":"Lunes - Viernes","open":"15:30","close":"20:00"},{"days":"S\u00e1bado","open":"09:00","close":"17:00"}],"address":"Avda. Corrales esq. Tte. Rojas Silva","city":"Central","services":[{"name":"Atenci\u00f3n a cliente","icon":"sac"},{"name":"Horario extendido","icon":"timer"}]},{"id":390,"title":"Tobati","url_title":"tobati","gmap":{"latitude":-25.261007402041,"longitude":-57.083341115082},"contact":[{"type":"Tel\u00e9fono","number":"4143000"}],"hours":[{"days":"Lunes - Viernes","open":"08:00","close":"16:45"},{"days":"S\u00e1bado","open":"09:00","close":"12:30"}],"address":"Avda. Capit\u00e1n Juan Caballero esq. Fidel Ma\u00edz","city":"Cordillera","services":[{"name":"Atenci\u00f3n a cliente","icon":"sac"},{"name":"Horario extendido","icon":"timer"},{"name":"ATM","icon":"atm"}]},{"id":389,"title":"Juan E. Estigarribia","url_title":"juan-e.-estigarria","gmap":{"latitude":-25.379646207534,"longitude":-55.6958332},"contact":[{"type":"Tel\u00e9fono","number":"4143000"}],"hours":[{"days":"Lunes - Viernes","open":"08:00","close":"16:45"}],"address":"Jos\u00e9 A. Flores esq. San Roque Gonz\u00e1lez de Santa Cruz","city":"Caaguaz\u00fa","services":[{"name":"Atenci\u00f3n a cliente","icon":"sac"},{"name":"ATM","icon":"atm"}]},{"id":388,"title":"Hipermercado Luisito E. Ayala","url_title":"hipermercado-luisito-e.-ayala","gmap":{"latitude":-25.31522482257,"longitude":-57.578608088361},"contact":[{"type":"Tel\u00e9fono","number":"4143000"}],"hours":[{"days":"Lunes - Viernes","open":"08:00","close":"20:00"},{"days":"S\u00e1bado","open":"08:00","close":"20:00"},{"days":"Domingo","open":"08:00","close":"12:00"}],"address":"Avda. Eusebio Ayala c\/ R.I.3 Corrales","city":"Central","services":[{"name":"Atenci\u00f3n a cliente","icon":"sac"},{"name":"Horario extendido","icon":"timer"},{"name":"ATM","icon":"atm"},{"name":"Tauser","icon":"tauser"}]},{"id":387,"title":"Villa Hayes","url_title":"villa-hayes","gmap":{"latitude":-25.089878255589,"longitude":-57.531340736246},"contact":[{"type":"Tel\u00e9fono","number":"4143000"}],"hours":[{"days":"Lunes - Viernes","open":"08:00","close":"16:45"}],"address":"Ruta Transchaco km 32 esq. Laudo Hayes","city":"Pte. Hayes","services":[{"name":"Atenci\u00f3n a cliente","icon":"sac"},{"name":"ATM","icon":"atm"}]},{"id":386,"title":"Fernando de la Mora II","url_title":"fernando-de-la-mora-ii","gmap":{"latitude":-25.323147257514,"longitude":-57.55458195},"contact":[{"type":"Tel\u00e9fono","number":"4143000"}],"hours":[{"days":"Lunes - Viernes","open":"08:00","close":"16:45"}],"address":"Avda. Mcal. L\u00f3pez esq. Pikysyry","city":"Central","services":[{"name":"Atenci\u00f3n a cliente","icon":"sac"},{"name":"ATM","icon":"atm"},{"name":"Tauser","icon":"tauser"}]},{"id":385,"title":"Ita","url_title":"ita","gmap":{"latitude":-25.507588615421,"longitude":-57.358045238554},"contact":[{"type":"Tel\u00e9fono","number":"4143000"}],"hours":[{"days":"Lunes - Viernes","open":"08:00","close":"16:45"},{"days":"S\u00e1bado","open":"08:00","close":"12:30"}],"address":"Avda. General D\u00edaz c\/ General Bernardino Caballero - Km 38 (Desvio a Itagua)","city":"Central","services":[{"name":"Atenci\u00f3n a cliente","icon":"sac"},{"name":"ATM","icon":"atm"},{"name":"Tauser","icon":"tauser"}]},{"id":384,"title":"Shopping La Rural","url_title":"la-rural","gmap":{"latitude":-25.507112934872,"longitude":-57.565023921689},"contact":[{"type":"Tel\u00e9fono","number":"4143000"}],"hours":[{"days":"Lunes - Viernes","open":"08:00","close":"20:00"},{"days":"S\u00e1bado","open":"09:00","close":"20:00"},{"days":"Domingo","open":"09:00","close":"13:30"}],"address":"Ruta Transchaco - Km 10 (Shopping La Rural)","city":"Central","services":[{"name":"Atenci\u00f3n a cliente","icon":"sac"},{"name":"Horario extendido","icon":"timer"},{"name":"ATM","icon":"atm"}]},{"id":383,"title":"Supermercado Los Jardines Luque","url_title":"supermercado-los-jardines","gmap":{"latitude":-25.265296107495,"longitude":-57.5053892},"contact":[{"type":"Tel\u00e9fono","number":"4143000"}],"hours":[{"days":"Lunes - Viernes","open":"08:00","close":"20:00"},{"days":"S\u00e1bado","open":"08:00","close":"20:00"},{"days":"Domingo","open":"08:00","close":"13:00"}],"address":"Avda. General Aquino esq. Tte Rivas - Luque","city":"Central","services":[{"name":"Atenci\u00f3n a cliente","icon":"sac"},{"name":"Horario extendido","icon":"timer"},{"name":"ATM","icon":"atm"}]},{"id":382,"title":"Villeta","url_title":"villeta","gmap":{"latitude":-25.507105672535,"longitude":-57.565023921689},"contact":[{"type":"Tel\u00e9fono","number":"4143000"}],"hours":[{"days":"Lunes - Viernes","open":"08:00","close":"16:45"}],"address":"Avda. Mcal. L\u00f3pez esq. Humait\u00e1","city":"Central","services":[{"name":"Atenci\u00f3n a cliente","icon":"sac"},{"name":"ATM","icon":"atm"}]},{"id":381,"title":"Minga Guaz\u00fa","url_title":"minga-guazu","gmap":{"latitude":-25.485651427263,"longitude":-54.761553702377},"contact":[{"type":"Tel\u00e9fono","number":"4143000"}],"hours":[{"days":"Lunes - Viernes","open":"08:00","close":"16:45"}],"address":"Avda. Mcal. Jos\u00e9 F\u00e9lix Estigarribia c\/ Cerro Cor\u00e1 - Km 16","city":"Alto Paran\u00e1","services":[{"name":"Atenci\u00f3n a cliente","icon":"sac"},{"name":"ATM","icon":"atm"}]},{"id":380,"title":"Mariscal L\u00f3pez","url_title":"mariscal-lopez","gmap":{"latitude":-25.293678292557,"longitude":-57.580545789584},"contact":[{"type":"Tel\u00e9fono","number":"4143000"}],"hours":[{"days":"Lunes - Viernes","open":"08:00","close":"16:45"}],"address":"Avda. Mcal. L\u00f3pez esq. Tte. Basilio Malut\u00edn (Planta Alta)","city":"Central","services":[{"name":"Atenci\u00f3n a cliente","icon":"sac"},{"name":"ATM","icon":"atm"},{"name":"Tauser","icon":"tauser"}]},{"id":379,"title":"Acceso Sur","url_title":"acceso-sur","gmap":{"latitude":-25.345054082646,"longitude":-57.579445004631},"contact":[{"type":"Tel\u00e9fono","number":"4143000"}],"hours":[{"days":"Lunes - Viernes","open":"08:00","close":"16:45"}],"address":"Acceso Sur esq. Soldado Ovelar","city":"Central","services":[{"name":"Atenci\u00f3n a cliente","icon":"sac"},{"name":"ATM","icon":"atm"},{"name":"Tauser","icon":"tauser"}]},{"id":378,"title":"Encarnaci\u00f3n II","url_title":"encarnacion-ii","gmap":{"latitude":-27.331350252544,"longitude":-55.866519254245},"contact":[{"type":"Tel\u00e9fono","number":"4143000"}],"hours":[{"days":"Lunes - Viernes","open":"08:00","close":"16:45"},{"days":"S\u00e1bado","open":"08:00","close":"12:30"}],"address":"Mcal. Estigarribia e\/ Tom\u00e1s Romero Pereira y Villarrica","city":"Itap\u00faa","services":[{"name":"Atenci\u00f3n a cliente","icon":"sac"},{"name":"ATM","icon":"atm"},{"name":"Tauser","icon":"tauser"}]},{"id":377,"title":"Sajonia","url_title":"sajonia","gmap":{"latitude":-25.288621557503,"longitude":-57.63507655},"contact":[{"type":"Tel\u00e9fono","number":"4143000"}],"hours":[{"days":"Lunes - Viernes","open":"08:00","close":"16:45"}],"address":"Avda. Carlos Antonio L\u00f3pez e\/ De La Conquista y Testanova","city":"Central","services":[{"name":"Atenci\u00f3n a cliente","icon":"sac"},{"name":"ATM","icon":"atm"},{"name":"Tauser","icon":"tauser"}]},{"id":376,"title":"Tebicuary","url_title":"tebicuary","gmap":{"latitude":-25.770639857792,"longitude":-56.650793328033},"contact":[{"type":"Tel\u00e9fono","number":"4143000"}],"hours":[{"days":"Lunes - Viernes","open":"08:00","close":"16:45"}],"address":"Calle 1 y V\u00eda F\u00e9rrea ( A 500 m del cruce)","city":"Guair\u00e1","services":[{"name":"Atenci\u00f3n a cliente","icon":"sac"}]},{"id":375,"title":"Constituci\u00f3n","url_title":"constitucion","gmap":{"latitude":-25.285034407501,"longitude":-57.6256835},"contact":[{"type":"Tel\u00e9fono","number":"4143000"}],"hours":[{"days":"Lunes - Viernes","open":"08:00","close":"16:45"}],"address":"Constituci\u00f3n 733 c\/ Luis Alberto de Herrera","city":"Central","services":[{"name":"Atenci\u00f3n a cliente","icon":"sac"},{"name":"ATM","icon":"atm"}]},{"id":374,"title":"Santa Rosa del Aguaray","url_title":"santa-rosa-del-aguaray","gmap":{"latitude":-23.825851207013,"longitude":-56.518976},"contact":[{"type":"Tel\u00e9fono","number":"4143000"}],"hours":[{"days":"Lunes - Viernes","open":"08:00","close":"16:45"}],"address":"Ruta N\u00ba 3 General Elizardo Aquino Km 321 c\/ Profesor Pedro Gonz\u00e1lez","city":"San Pedro","services":[{"name":"Atenci\u00f3n a cliente","icon":"sac"},{"name":"ATM","icon":"atm"},{"name":"Tauser","icon":"tauser"}]},{"id":373,"title":"Horqueta","url_title":"horqueta","gmap":{"latitude":-23.349286358743,"longitude":-57.045231059787},"contact":[{"type":"Tel\u00e9fono","number":"4143000"}],"hours":[{"days":"Lunes - Viernes","open":"08:00","close":"16:45"}],"address":"Avda. Mcal. L\u00f3pez e\/  Pedro Alberto Gossen e\/ Iturbe","city":"Concepci\u00f3n ","services":[{"name":"Atenci\u00f3n a cliente","icon":"sac"},{"name":"ATM","icon":"atm"}]},{"id":372,"title":"Coronel Bogado","url_title":"san-bernardino","gmap":{"latitude":-27.15569994513,"longitude":-56.238268571164},"contact":[{"type":"Tel\u00e9fono","number":"4143000"}],"hours":[{"days":"Lunes - Viernes","open":"08:00","close":"16:45"}],"address":"Ruta N\u00ba 1 Mcal. L\u00f3pez esq. Padre Mauricio","city":"Itap\u00faa","services":[{"name":"Atenci\u00f3n a cliente","icon":"sac"},{"name":"ATM","icon":"atm"}]},{"id":371,"title":"Mar\u00eda Auxiliadora","url_title":"maria-auxiliadora","gmap":{"latitude":-26.530304263518,"longitude":-55.25937884259},"contact":[{"type":"Tel\u00e9fono","number":"4143000"}],"hours":[{"days":"Lunes - Viernes","open":"08:00","close":"16:45"}],"address":"Avda. Tom\u00e1s Romero Pereira esq. Avidadores del Chaco","city":"Itap\u00faa","services":[{"name":"Atenci\u00f3n a cliente","icon":"sac"},{"name":"ATM","icon":"atm"}]},{"id":370,"title":"Loma Plata","url_title":"loma-plata","gmap":{"latitude":-22.388467343841,"longitude":-59.836705875641},"contact":[{"type":"Tel\u00e9fono","number":"4143000"}],"hours":[{"days":"Lunes - Viernes","open":"08:00","close":"16:45"}],"address":"Avda. Central esq. Manuel Gondra 1640","city":"Boquer\u00f3n ","services":[{"name":"Atenci\u00f3n a cliente","icon":"sac"},{"name":"ATM","icon":"atm"}]},{"id":369,"title":"San Juan Nepomuceno","url_title":"san-juan-nepomuceno","gmap":{"latitude":-26.220657948395,"longitude":-56.0762215},"contact":[{"type":"Tel\u00e9fono","number":"4143000"}],"hours":[{"days":"Lunes - Viernes","open":"08:00","close":"16:45"}],"address":"Avda. Pa'i Fari\u00f1a c\/ Mcal. Estigarribia","city":"Caazap\u00e1 ","services":[{"name":"Atenci\u00f3n a cliente","icon":"sac"},{"name":"ATM","icon":"atm"}]},{"id":368,"title":"Curuguaty","url_title":"curuguaty","gmap":{"latitude":-24.472654805997,"longitude":-55.69237890159},"contact":[{"type":"Tel\u00e9fono","number":"4143000"}],"hours":[{"days":"Lunes - Viernes","open":"08:00","close":"16:45"}],"address":"Avda. 14 de Mayo esq. Julia Miranda Cueto","city":"Canindey\u00fa","services":[{"name":"Atenci\u00f3n a cliente","icon":"sac"},{"name":"ATM","icon":"atm"}]},{"id":367,"title":"Salto del Guair\u00e1","url_title":"salto-del-guaira","gmap":{"latitude":-24.23333537384,"longitude":-55.17745695},"contact":[{"type":"Tel\u00e9fono","number":"4143000"}],"hours":[{"days":"Lunes - Viernes","open":"08:00","close":"16:45"}],"address":"Avda. Paraguay esq. Carlos M\u00e9ndez","city":"Canindey\u00fa","services":[{"name":"Atenci\u00f3n a cliente","icon":"sac"},{"name":"ATM","icon":"atm"}]},{"id":366,"title":"Sant\u00edsima Trinidad","url_title":"santisima-trinidad","gmap":{"latitude":-25.258786195038,"longitude":-57.579672423943},"contact":[{"type":"Tel\u00e9fono","number":"4143000"}],"hours":[{"days":"Lunes - Viernes","open":"08:00","close":"16:45"}],"address":"Avda. Sacramento esq. Sant\u00edsima Trinidad","city":"Central","services":[{"name":"Atenci\u00f3n a cliente","icon":"sac"},{"name":"ATM","icon":"atm"},{"name":"Tauser","icon":"tauser"}]},{"id":365,"title":"Itagua","url_title":"itagua","gmap":{"latitude":-25.393143613549,"longitude":-57.352959885999},"contact":[{"type":"Tel\u00e9fono","number":"4143000"}],"hours":[{"days":"Lunes - Viernes","open":"08:00","close":"16:45"}],"address":"Ruta N\u00ba 2 Mcal. Estigarribia esq. Juan C. Centurion - Km 30","city":"Central","services":[{"name":"Atenci\u00f3n a cliente","icon":"sac"},{"name":"ATM","icon":"atm"}]},{"id":364,"title":"Denis Roa","url_title":"denis-roa","gmap":{"latitude":-25.297386556644,"longitude":-57.562902378836},"contact":[{"type":"Tel\u00e9fono","number":"4143000"}],"hours":[{"days":"Lunes - Viernes","open":"08:00","close":"16:45"}],"address":"Denis Roa esq. Mois\u00e9s Bertoni","city":"Central","services":[{"name":"Atenci\u00f3n a cliente","icon":"sac"},{"name":"ATM","icon":"atm"},{"name":"Tauser","icon":"tauser"}]},{"id":363,"title":"San Ignacio","url_title":"san-ignacio-del-loyola","gmap":{"latitude":-26.88798922047,"longitude":-57.021632613492},"contact":[{"type":"Tel\u00e9fono","number":"4143000"}],"hours":[{"days":"Lunes - Viernes","open":"08:00","close":"16:45"}],"address":"Avda. Mcal. Estigarribia esq. Fulgencio Yegros","city":"Misiones ","services":[{"name":"Atenci\u00f3n a cliente","icon":"sac"},{"name":"ATM","icon":"atm"}]},{"id":362,"title":"San Lorenzo II","url_title":"san-lorenzo-ii","gmap":{"latitude":-25.348448173082,"longitude":-57.511921624344},"contact":[{"type":"Tel\u00e9fono","number":"4143000"}],"hours":[{"days":"Lunes - Viernes","open":"08:00","close":"16:45"}],"address":"Hernandarias esq.10 de Agosto","city":"Central","services":[{"name":"Atenci\u00f3n a cliente","icon":"sac"},{"name":"ATM","icon":"atm"},{"name":"Tauser","icon":"tauser"}]},{"id":361,"title":"Ciudad del Este III","url_title":"ciudad-del-este-iii","gmap":{"latitude":-25.511180529862,"longitude":-54.611937391471},"contact":[{"type":"Tel\u00e9fono","number":"4143000"}],"hours":[{"days":"Lunes - Viernes","open":"08:00","close":"16:45"}],"address":"Avda. Boquer\u00f3n esq. Avda. Adr\u00edan Jara","city":"Alto Paran\u00e1","services":[{"name":"Atenci\u00f3n a cliente","icon":"sac"},{"name":"ATM","icon":"atm"},{"name":"Tauser","icon":"tauser"}]},{"id":360,"title":"Santa Rita","url_title":"santa-rita","gmap":{"latitude":-25.793911925675,"longitude":-55.08730533992},"contact":[{"type":"Tel\u00e9fono","number":"4143000"}],"hours":[{"days":"Lunes - Viernes","open":"08:00","close":"16:45"}],"address":"Avda. Carlos Antonio L\u00f3pez esq. Eusebio Ayala","city":"Alto Paran\u00e1","services":[{"name":"Atenci\u00f3n a cliente","icon":"sac"},{"name":"ATM","icon":"atm"}]},{"id":359,"title":"Limpio","url_title":"limpio","gmap":{"latitude":-25.168511845526,"longitude":-57.475175651783},"contact":[{"type":"Tel\u00e9fono","number":"4143000"}],"hours":[{"days":"Lunes - Viernes","open":"08:00","close":"16:45"}],"address":"Ruta N\u00ba 3 Gral. E. Aquino c\/ Mcal. Estigarribia","city":"Central","services":[{"name":"Atenci\u00f3n a cliente","icon":"sac"},{"name":"ATM","icon":"atm"}]},{"id":358,"title":"Capiat\u00e1","url_title":"capiata","gmap":{"latitude":-25.355036870531,"longitude":-57.441678471233},"contact":[{"type":"Tel\u00e9fono","number":"4143000"}],"hours":[{"days":"Lunes - Viernes","open":"08:00","close":"16:45"}],"address":"Ruta 2 Mcal. Estigarribia esq. Ram\u00f3n El\u00edas","city":"Central","services":[{"name":"Atenci\u00f3n a cliente","icon":"sac"},{"name":"ATM","icon":"atm"},{"name":"Tauser","icon":"tauser"}]},{"id":357,"title":"Obligado","url_title":"obligado","gmap":{"latitude":-26.811901543134,"longitude":-55.72124445},"contact":[{"type":"Tel\u00e9fono","number":"4143000"}],"hours":[{"days":"Lunes - Viernes","open":"08:00","close":"16:45"}],"address":"Avda. Gaspar Rodr\u00edguez de Francia esq. Colonias Unidad","city":"Itap\u00faa ","services":[{"name":"Atenci\u00f3n a cliente","icon":"sac"},{"name":"ATM","icon":"atm"},{"name":"Tauser","icon":"tauser"}]},{"id":356,"title":"Oliva","url_title":"oliva","gmap":{"latitude":-25.281248463916,"longitude":-57.639327613214},"contact":[{"type":"Tel\u00e9fono","number":"4143000"}],"hours":[{"days":"Lunes - Viernes","open":"08:00","close":"00:45"}],"address":"Oliva esq. O'leary","city":"Central","services":[{"name":"Atenci\u00f3n a cliente","icon":"sac"},{"name":"ATM","icon":"atm"},{"name":"Tauser","icon":"tauser"}]},{"id":355,"title":"Shopping Multiplaza","url_title":"multiplaza","gmap":{"latitude":-25.316585116351,"longitude":-57.571309717197},"contact":[{"type":"Tel\u00e9fono","number":"4143000"}],"hours":[{"days":"Lunes - Viernes","open":"08:00","close":"20:00"},{"days":"S\u00e1bado","open":"08:00","close":"20:00"},{"days":"Domingo","open":"10:00","close":"15:00"}],"address":"Avda. Eusebio Ayala Km 5 ","city":"Central","services":[{"name":"Atenci\u00f3n a cliente","icon":"sac"},{"name":"Horario extendido","icon":"timer"},{"name":"ATM","icon":"atm"},{"name":"Tauser","icon":"tauser"}]},{"id":354,"title":"Katuet\u00e9","url_title":"katuete","gmap":{"latitude":-24.251109040435,"longitude":-54.766276819836},"contact":[{"type":"Tel\u00e9fono","number":"4143000"}],"hours":[{"days":"Lunes - Viernes","open":"08:00","close":"16:45"}],"address":"Avda. Las Residentas esq. Capell\u00e1n Arzamendia","city":"Canindey\u00fa","services":[{"name":"Atenci\u00f3n a cliente","icon":"sac"},{"name":"ATM","icon":"atm"}]},{"id":353,"title":"Pinoz\u00e1","url_title":"pinoza","gmap":{"latitude":-25.304969277783,"longitude":-57.607756335319},"contact":[{"type":"Tel\u00e9fono","number":"4143000"}],"hours":[{"days":"Lunes - Viernes","open":"08:00","close":"16:45"}],"address":"Avda. Eusebio Ayala esq. Bruno Guggiari","city":"Central","services":[{"name":"Atenci\u00f3n a cliente","icon":"sac"},{"name":"ATM","icon":"atm"},{"name":"Tauser","icon":"tauser"}]},{"id":352,"title":"Pedro Juan Caballero","url_title":"pedro-juan-caballero","gmap":{"latitude":-22.535125049453,"longitude":-55.727889020593},"contact":[{"type":"Tel\u00e9fono","number":"4143000"}],"hours":[{"days":"Lunes - Viernes","open":"08:00","close":"16:45"}],"address":"Avda. Mcal. L\u00f3pez c\/ Julia Miranda Cueto de Estigarribia","city":"Amambay ","services":[{"name":"Atenci\u00f3n a cliente","icon":"sac"},{"name":"ATM","icon":"atm"},{"name":"Tauser","icon":"tauser"}]},{"id":351,"title":"San Estanislao","url_title":"san-estanislao","gmap":{"latitude":-24.662887000158,"longitude":-56.443379930951},"contact":[{"type":"Tel\u00e9fono","number":"4143000"}],"hours":[{"days":"Lunes - Viernes","open":"08:00","close":"16:45"}],"address":"Cnel. Z. Gonz\u00e1lez esq. Mcal L\u00f3pez","city":"San Pedro","services":[{"name":"Atenci\u00f3n a cliente","icon":"sac"},{"name":"ATM","icon":"atm"},{"name":"Tauser","icon":"tauser"}]},{"id":350,"title":"Ciudad del Este II","url_title":"ciudad-del-este-ii","gmap":{"latitude":-25.501692739819,"longitude":-54.667504746295},"contact":[{"type":"Tel\u00e9fono","number":"4143000"}],"hours":[{"days":"Lunes - Viernes","open":"08:00","close":"16:45"}],"address":"Avda. Julio C\u00e9sar Riquelme Km 7  B. Ciudad Nueva, frente a la coop. Medalla","city":"Alto Paran\u00e1","services":[{"name":"Atenci\u00f3n a cliente","icon":"sac"},{"name":"ATM","icon":"atm"},{"name":"Tauser","icon":"tauser"}]},{"id":349,"title":"Villarrica","url_title":"villarrica","gmap":{"latitude":-25.781151707132,"longitude":-56.446491919312},"contact":[{"type":"Tel\u00e9fono","number":"4143000"}],"hours":[{"days":"Lunes - Viernes","open":"08:00","close":"16:45"},{"days":"S\u00e1bado","open":"08:00","close":"13:00"}],"address":"Avda. Carlos Antonio L\u00f3pez esq. Mcal. Estigarribia","city":"Guair\u00e1","services":[{"name":"Atenci\u00f3n a cliente","icon":"sac"},{"name":"Horario extendido","icon":"timer"},{"name":"ATM","icon":"atm"},{"name":"Tauser","icon":"tauser"}]},{"id":348,"title":"Pilar","url_title":"pilar","gmap":{"latitude":-26.861000566817,"longitude":-58.299163979539},"contact":[{"type":"Tel\u00e9fono","number":"4143000"}],"hours":[{"days":"Lunes - Viernes","open":"08:00","close":"16:45"}],"address":"Avda. Irala esq. Alberdi","city":"\u00d1eembucu","services":[{"name":"Atenci\u00f3n a cliente","icon":"sac"},{"name":"ATM","icon":"atm"}]},{"id":347,"title":"Carapegua","url_title":"carapegua","gmap":{"latitude":-25.764941507665,"longitude":-57.24200825},"contact":[{"type":"Tel\u00e9fono","number":"4143000"}],"hours":[{"days":"Lunes - Viernes","open":"08:00","close":"16:45"}],"address":"Ruta N\u00ba 1 Mcal. L\u00f3pez esq. Crist\u00f3bal Col\u00f3n y Concejal Vera Da Silva","city":"Paraguar\u00ed","services":[{"name":"Atenci\u00f3n a cliente","icon":"sac"},{"name":"ATM","icon":"atm"},{"name":"Tauser","icon":"tauser"}]},{"id":346,"title":"Concepci\u00f3n","url_title":"concepcion","gmap":{"latitude":-22.79556558329,"longitude":-57.057619},"contact":[{"type":"Tel\u00e9fono","number":"4143000"}],"hours":[{"days":"Lunes - Viernes","open":"08:00","close":"16:45"}],"address":"Pdte. Franco esq. Gral Garay y 14 de Mayo","city":"Concepci\u00f3n ","services":[{"name":"Atenci\u00f3n a cliente","icon":"sac"},{"name":"ATM","icon":"atm"},{"name":"Tauser","icon":"tauser"}]},{"id":345,"title":"Caaguaz\u00fa","url_title":"caaguazu","gmap":{"latitude":-25.464369276193,"longitude":-56.018612374359},"contact":[{"type":"Tel\u00e9fono","number":"4143000"}],"hours":[{"days":"Lunes - Viernes","open":"08:00","close":"16:45"},{"days":"S\u00e1bado","open":"08:00","close":"13:00"}],"address":"Avda. Bernardino Caballero esq. General D\u00edaz","city":"Caaguaz\u00fa","services":[{"name":"Atenci\u00f3n a cliente","icon":"sac"},{"name":"Horario extendido","icon":"timer"},{"name":"ATM","icon":"atm"},{"name":"Tauser","icon":"tauser"}]},{"id":344,"title":"Villa Morra","url_title":"villa-morra","gmap":{"latitude":-25.294410944261,"longitude":-57.57991105264},"contact":[{"type":"Tel\u00e9fono","number":"4143000"}],"hours":[{"days":"Lunes - Viernes","open":"08:00","close":"16:45"}],"address":"Mcal. L\u00f3pez esq. Capit\u00e1n Malut\u00edn (Planta Baja)     ","city":"Central","services":[{"name":"Atenci\u00f3n a cliente","icon":"sac"},{"name":"ATM","icon":"atm"},{"name":"Tauser","icon":"tauser"}]},{"id":340,"title":"Fernando de la Mora I","url_title":"fernardo.-de-la-mora-i","gmap":{"latitude":-25.327055448269,"longitude":-57.551266739658},"contact":[{"type":"Tel\u00e9fono","number":"4143000"}],"hours":[{"days":"Lunes - Viernes","open":"08:00","close":"16:45"},{"days":"S\u00e1bado","open":"08:00","close":"13:00"}],"address":"Ruta Mcal. Estigarribia esq. Primera Junta Municipal","city":"Central","services":[{"name":"Atenci\u00f3n a cliente","icon":"sac"},{"name":"Horario extendido","icon":"timer"},{"name":"ATM","icon":"atm"},{"name":"Tauser","icon":"tauser"}]},{"id":339,"title":"Coronel Oviedo","url_title":"coronel-oviedo","gmap":{"latitude":-25.445729207556,"longitude":-56.43977025},"contact":[{"type":"Tel\u00e9fono","number":"4143000"}],"hours":[{"days":"Lunes - Viernes","open":"08:00","close":"16:45"}],"address":"Ruta Mcal. Estigarribia esq. Tuyut\u00ed","city":"Caaguaz\u00fa","services":[{"name":"Atenci\u00f3n a cliente","icon":"sac"},{"name":"ATM","icon":"atm"},{"name":"Tauser","icon":"tauser"}]},{"id":338,"title":"Ciudad del Este I","url_title":"ciudad-del-este-1","gmap":{"latitude":-25.51654550758,"longitude":-54.61672875},"contact":[{"type":"Tel\u00e9fono","number":"4143000"}],"hours":[{"days":"Lunes - Viernes","open":"08:00","close":"16:45"}],"address":"Avda. Bernardino Caballero esq. Paso de Patria","city":"Alto Paran\u00e1","services":[{"name":"Atenci\u00f3n a cliente","icon":"sac"},{"name":"ATM","icon":"atm"},{"name":"Tauser","icon":"tauser"}]},{"id":337,"title":"Lambar\u00e9","url_title":"lambare","gmap":{"latitude":-25.343284246355,"longitude":-57.621362442868},"contact":[{"type":"Tel\u00e9fono","number":"4143000"}],"hours":[{"days":"Lunes - Viernes","open":"08:00","close":"16:45"}],"address":"Avda. Cacique Lambar\u00e9 esq. San Vicente","city":"Central","services":[{"name":"ATM","icon":"atm"},{"name":"Atenci\u00f3n a cliente","icon":"sac"},{"name":"Tauser","icon":"tauser"}]},{"id":336,"title":"Mariano Roque Alonso","url_title":"mariano-roque-alonso","gmap":{"latitude":-25.237223807485,"longitude":-57.54048375},"contact":[{"type":"Tel\u00e9fono","number":"4143000"}],"hours":[{"days":"Lunes - Viernes","open":"08:00","close":"16:45"}],"address":"Ruta Transchaco - Km 15,5 c\/ Humaita","city":"Central","services":[{"name":"Atenci\u00f3n a cliente","icon":"sac"},{"name":"ATM","icon":"atm"},{"name":"Tauser","icon":"tauser"}]},{"id":335,"title":"\u00d1emby","url_title":"nemby","gmap":{"latitude":-25.391917857538,"longitude":-57.5454961},"contact":[{"type":"Tel\u00e9fono","number":"4143000"}],"hours":[{"days":"Lunes - Viernes","open":"08:00","close":"16:45"}],"address":"Acceso Sur esq. La Franconi","city":"Central","services":[{"name":"Atenci\u00f3n a cliente","icon":"sac"},{"name":"ATM","icon":"atm"},{"name":"Tauser","icon":"tauser"}]},{"id":334,"title":"Palma","url_title":"palma","gmap":{"latitude":-25.282320215206,"longitude":-57.634401040807},"contact":[{"type":"Tel\u00e9fono","number":"4143000"}],"hours":[{"days":"Lunes - Viernes","open":"08:00","close":"16:45"}],"address":"Palma esq. Nuestra Se\u00f1ora de la Asunci\u00f3n","city":"Central","services":[{"name":"Atenci\u00f3n a cliente","icon":"sac"},{"name":"ATM","icon":"atm"},{"name":"Tauser","icon":"tauser"}]},{"id":333,"title":"Caacup\u00e9","url_title":"caacupe","gmap":{"latitude":-25.385898417686,"longitude":-57.141863450891},"contact":[{"type":"Tel\u00e9fono","number":"4143000"}],"hours":[{"days":"Lunes - Viernes","open":"08:00","close":"16:45"}],"address":"Eligio Ayala esq. Juan E. O'leary ","city":"Cordillera","services":[{"name":"Atenci\u00f3n a cliente","icon":"sac"},{"name":"ATM","icon":"atm"},{"name":"Tauser","icon":"tauser"}]},{"id":332,"title":"Encarnaci\u00f3n I","url_title":"encarnacion-1","gmap":{"latitude":-27.348617508213,"longitude":-55.85855965},"contact":[{"type":"Tel\u00e9fono","number":"4143000"}],"hours":[{"days":"Lunes - Viernes","open":"08:00","close":"16:45"}],"address":"Cristo Rey esq. Ruta Internacional","city":"Itap\u00faa","services":[{"name":"Atenci\u00f3n a cliente","icon":"sac"},{"name":"ATM","icon":"atm"},{"name":"Tauser","icon":"tauser"}]},{"id":331,"title":"Luque","url_title":"luque","gmap":{"latitude":-25.267846107496,"longitude":-57.49058275},"contact":[{"type":"Tel\u00e9fono","number":"4143000"}],"hours":[{"days":"Lunes - Viernes","open":"08:00","close":"16:45"}],"address":"Cerro Cor\u00e1 esq. Fulgencio Yegros y Valeriano Zeballos ","city":"Central","services":[{"name":"Atenci\u00f3n a cliente","icon":"sac"},{"name":"ATM","icon":"atm"},{"name":"Tauser","icon":"tauser"}]},{"id":330,"title":"General Santos","url_title":"general-santos","gmap":{"latitude":-25.308822029378,"longitude":-57.615883479133},"contact":[{"type":"Tel\u00e9fono","number":"4143000"}],"hours":[{"days":"Lunes - Viernes","open":"08:00","close":"16:45"}],"address":"Avda. General Santos esq. Avda. Proceres de Mayo (continuaci\u00f3n de la Avda. Fernando de la Mora)","city":"Central","services":[{"name":"Atenci\u00f3n a cliente","icon":"sac"},{"name":"ATM","icon":"atm"},{"name":"Tauser","icon":"tauser"}]},{"id":329,"title":"San Lorenzo I","url_title":"san-lorenzo-1","gmap":{"latitude":-25.346180870077,"longitude":-57.50680484364},"contact":[{"type":"Tel\u00e9fono","number":"4143000"}],"hours":[{"days":"Lunes - Viernes","open":"08:00","close":"16:45"}],"address":"Ruta N\u00ba 2 Mcal. Estigarribia esq. Cnel. Romero Km","city":"Central","services":[{"name":"Atenci\u00f3n a cliente","icon":"sac"},{"name":"ATM","icon":"atm"},{"name":"Tauser","icon":"tauser"}]},{"id":202,"title":"Casa Matriz","url_title":"casa-matriz1","gmap":{"latitude":-25.289482,"longitude":-57.554369},"contact":[{"type":"Tel\u00e9fono","number":"0214143000"}],"hours":[{"days":"Lunes - Viernes","open":"08:00","close":"16:45"}],"address":"Avda. Santa Teresa N\u00ba 3088 c\/ Concejal Vargas","city":"Central","services":[{"name":"Atenci\u00f3n a cliente","icon":"sac"},{"name":"ATM","icon":"atm"},{"name":"Tauser","icon":"tauser"}]}]}